{
  "type": "FeatureCollection",
  "features": [
    {
      "type": "Feature",
      "id": 0,
      "properties": {
        "NAME": "Duluth Grill",
        "ADDRESS": "118 S 27th Ave W",
        "HOURS": "7:00 am - 9:00 pm",
        "URL": "http://www.duluthgrill.com",
        "DISCOUNT_NOTES": "No GIS/LIS discount available."
      },
      "geometry": {
        "type": "Point",
        "coordinates": [
          -92.13005,
          46.760614
        ]
      }
    },
    {
      "type": "Feature",
      "id": 1,
      "properties": {
        "NAME": "Northern Waters Smokehaus",
        "ADDRESS": "394 Lake Ave S, Suite 106",
        "HOURS": "10:00 am - 8:00 pm",
        "URL": "http://www.northernwaterssmokehaus.com",
        "DISCOUNT_NOTES": "10% off order (limit one person per day)."
      },
      "geometry": {
        "type": "Point",
        "coordinates": [
          -92.094636,
          46.781948
        ]
      }
    },
    {
      "type": "Feature",
      "id": 2,
      "properties": {
        "NAME": "Canal Park Brewing Company",
        "ADDRESS": "300 Canal Park Dr",
        "HOURS": "11:00 am - 11:00 pm",
        "URL": "http://www.canalparkbrewery.com",
        "DISCOUNT_NOTES": "$1 off any purchase (limit one person per day)"
      },
      "geometry": {
        "type": "Point",
        "coordinates": [
          -92.09383,
          46.784832
        ]
      }
    },
    {
      "type": "Feature",
      "id": 3,
      "properties": {
        "NAME": "Fitgers Brewhouse Brewery",
        "ADDRESS": "600 E Superior St",
        "HOURS": "11:00 am - 1:00 am",
        "URL": "http://brewhouse.net",
        "DISCOUNT_NOTES": "No GIS/LIS discount available."
      },
      "geometry": {
        "type": "Point",
        "coordinates": [
          -92.0906,
          46.792376
        ]
      }
    },
    {
      "type": "Feature",
      "id": 4,
      "properties": {
        "NAME": "Bent Paddle Brewing Company",
        "ADDRESS": "1912 W Michigan St",
        "HOURS": "3:00 pm - 10:00 pm",
        "URL": "http://www.bentpaddlebrewing.com",
        "DISCOUNT_NOTES": "No GIS/LIS discount available."
      },
      "geometry": {
        "type": "Point",
        "coordinates": [
          -92.1218,
          46.7676
        ]
      }
    },
    {
      "type": "Feature",
      "id": 5,
      "properties": {
        "NAME": "Lake Superior Brewing Company",
        "ADDRESS": "2711 W Superior St",
        "HOURS": "4:00 pm - 9:00 pm",
        "URL": "http://www.lakesuperiorbrewing.com",
        "DISCOUNT_NOTES": "No GIS/LIS discount available."
      },
      "geometry": {
        "type": "Point",
        "coordinates": [
          -92.1325,
          46.7606
        ]
      }
    },
    {
      "type": "Feature",
      "id": 6,
      "properties": {
        "NAME": "Duhb Linn Irish Brew Pub",
        "ADDRESS": "109 W Superior St",
        "HOURS": "11:00 am - 2:00 am",
        "URL": "http://www.dubhlinnpub.com",
        "DISCOUNT_NOTES": "$2 drinks (up to a $6 value) & $5 off $25+"
      },
      "geometry": {
        "type": "Point",
        "coordinates": [
          -92.1001,
          46.7858
        ]
      }
    },
    {
      "type": "Feature",
      "id": 7,
      "properties": {
        "NAME": "Tycoons Zenith Alehouse",
        "ADDRESS": "132 E Superior St",
        "HOURS": "11:00 am - 1:00 am",
        "URL": "http://tycoonsalehouse.com",
        "DISCOUNT_NOTES": "No GIS/LIS discount available."
      },
      "geometry": {
        "type": "Point",
        "coordinates": [
          -92.0955,
          46.7885
        ]
      }
    },
    {
      "type": "Feature",
      "id": 8,
      "properties": {
        "NAME": "Grizzly's Wood-fire Grill Canal Park",
        "ADDRESS": "310 S Lake Ave",
        "HOURS": "11:00 am - 2:00 am",
        "URL": "http://grizzlysgrill.com",
        "DISCOUNT_NOTES": "$2.50 off any purchase of $10+."
      },
      "geometry": {
        "type": "Point",
        "coordinates": [
          -92.096,
          46.7838
        ]
      }
    },
    {
      "type": "Feature",
      "id": 9,
      "properties": {
        "NAME": "Grandma's Saloon and Grill",
        "ADDRESS": "522 S Lake Ave",
        "HOURS": "11:00 am - 1:00 am",
        "URL": "http://grandmasrestaurants.com",
        "DISCOUNT_NOTES": "Free app (up to $6.99) with 2 entree & 2 beverage purchase (not valid with other offers or discounts)."
      },
      "geometry": {
        "type": "Point",
        "coordinates": [
          -92.0933,
          46.7801
        ]
      }
    },
    {
      "type": "Feature",
      "id": 10,
      "properties": {
        "NAME": "Little Angie's Cantina and Grill",
        "ADDRESS": "11 East Buchanan Street",
        "HOURS": "11:00 am - 1:00 am",
        "URL": "http://littleangiescantina.com",
        "DISCOUNT_NOTES": "$2.50 off medium size margarita (not valid with other offers or discounts), expires 10/9/15."
      },
      "geometry": {
        "type": "Point",
        "coordinates": [
          -92.0941,
          46.782
        ]
      }
    },
    {
      "type": "Feature",
      "id": 11,
      "properties": {
        "NAME": "Lake Avenue Restaurant and Bar",
        "ADDRESS": "394 S Lake Ave",
        "HOURS": "11:00 am - 11:00 pm",
        "URL": "http://lakeavenuerestaurantandbar.com",
        "DISCOUNT_NOTES": "10% off order (limit one person per day)."
      },
      "geometry": {
        "type": "Point",
        "coordinates": [
          -92.0947,
          46.782
        ]
      }
    },
    {
      "type": "Feature",
      "id": 12,
      "properties": {
        "NAME": "Amazing Grace Bakery & Cafe",
        "ADDRESS": "394 S Lake Ave",
        "HOURS": "7:00 am - 8:00 pm",
        "URL": "http://amazinggraceduluth.com",
        "DISCOUNT_NOTES": "Buy 1 fresh brewed coffee get 1 for 25 cents (used one time only)."
      },
      "geometry": {
        "type": "Point",
        "coordinates": [
          -92.0946,
          46.7816
        ]
      }
    },
    {
      "type": "Feature",
      "id": 13,
      "properties": {
        "NAME": "Hepzibah's Sweet Shoppe",
        "ADDRESS": "394 S Lake Ave",
        "HOURS": "10:00 am - 9:00 pm",
        "URL": "http://chocolatesduluth.com",
        "DISCOUNT_NOTES": "Buy one bear paw, get the 2nd for $2.50 (used one time only)."
      },
      "geometry": {
        "type": "Point",
        "coordinates": [
          -92.0945,
          46.7819
        ]
      }
    },
    {
      "type": "Feature",
      "id": 14,
      "properties": {
        "NAME": "7 West Taphouse",
        "ADDRESS": "7 W Superior St",
        "HOURS": "11:00 am - 1:00 am",
        "URL": "http://7westtaphouse.com",
        "DISCOUNT_NOTES": "$2.50 off any purchase of $10+."
      },
      "geometry": {
        "type": "Point",
        "coordinates": [
          -92.0986,
          46.7867
        ]
      }
    },
    {
      "type": "Feature",
      "id": 15,
      "properties": {
        "NAME": "Cloud 9 Asian Bistro",
        "ADDRESS": "308 S Lake Ave",
        "HOURS": "11:30 am - 9:30 pm",
        "URL": "http://cloud9asianbistro.com",
        "DISCOUNT_NOTES": "Any 2 dinner entrees $5 off (used one time only)."
      },
      "geometry": {
        "type": "Point",
        "coordinates": [
          -92.0959,
          46.7839
        ]
      }
    },
    {
      "type": "Feature",
      "id": 16,
      "properties": {
        "NAME": "Vikre Distillery",
        "ADDRESS": "525 S Lake Ave",
        "HOURS": "2:00 pm - 11:00 pm",
        "URL": "http://vikredistillery.com",
        "DISCOUNT_NOTES": "$5 gin & tonic (limit one per person per day)."
      },
      "geometry": {
        "type": "Point",
        "coordinates": [
          -92.0937,
          46.7801
        ]
      }
    }
  ]
}
